{"type":"FeatureCollection","features":[{"type":"Feature","geometry":{"type":"LineString","coordinates":[[-3.188396,55.944425],[-3.1884481,55.9441296],[-3.1887435,55.9441817],[-3.1890435,55.9441817],[-3.1890956,55.9444771],[-3.1891477,55.9447725],[-3.1891998,55.945068],[-3.1889044,55.9450159],[-3.1886746,55.9452087],[-3.1888246,55.9454685],[-3.1885648,55.9456185],[-3.1882828,55.9455159],[-3.1879874,55.945568],[-3.187692,55.9456201],[-3.187392,55.9456201],[-3.1870965,55.9456722],[-3.1869037,55.9454424],[-3.1867108,55.9452126],[-3.1865608,55.9449528],[-3.1865088,55.9446573],[-3.1867907,55.9445547],[-3.1870726,55.9446573],[-3.1873324,55.9445073],[-3.1871824,55.9442475],[-3.1870324,55.9439877],[-3.1873278,55.9439356],[-3.1872757,55.9436402],[-3.1872236,55.9433447],[-3.187121,55.9430628],[-3.1870184,55.9427809],[-3.1867184,55.9427809],[-3.1864184,55.9427809],[-3.1863158,55.9430628],[-3.1862132,55.9433447],[-3.1860632,55.9436045],[-3.1860111,55.9439],[-3.1862409,55.9440928],[-3.1865364,55.9440407],[-3.1868183,55.9439381],[-3.1871002,55.9438355],[-3.1873821,55.9437329],[-3.187664,55.9436303],[-3.1879459,55.9435277],[-3.1882278,55.9434251],[-3.1885097,55.9433225],[-3.1887916,55.9432199],[-3.1890735,55.9431173],[-3.1893554,55.9430147],[-3.1896153,55.9428647],[-3.1899107,55.9429168],[-3.1900607,55.9431766],[-3.1902107,55.9434364],[-3.1903133,55.9437183],[-3.1904633,55.9434585],[-3.1906561,55.9432287],[-3.190604,55.9429332],[-3.1908995,55.9428811],[-3.1911593,55.9427311],[-3.1912114,55.9430266],[-3.1912635,55.943322],[-3.1913156,55.9436175],[-3.1913677,55.9439129],[-3.1914198,55.9442083],[-3.1914719,55.9445038],[-3.191524,55.9447992],[-3.191576,55.9450947],[-3.191876,55.9450947],[-3.192176,55.9450947],[-3.1919462,55.9452875],[-3.1917164,55.9454803],[-3.1914866,55.9456732],[-3.1912568,55.945866],[-3.1909614,55.9459181],[-3.1906659,55.9459702],[-3.1903659,55.9459702],[-3.1900705,55.9460223],[-3.189775,55.9459702],[-3.189475,55.9459702],[-3.1893724,55.9456883],[-3.1890724,55.9456883],[-3.1887724,55.9456883],[-3.188477,55.9456362],[-3.188177,55.9456362],[-3.1878815,55.9455841],[-3.1875815,55.9455841],[-3.1872815,55.9455841],[-3.1869861,55.945532],[-3.1866907,55.9454799],[-3.1863907,55.9454799],[-3.1860952,55.9454278],[-3.1857952,55.9454278],[-3.1854998,55.9453757],[-3.1851998,55.9453757],[-3.1849043,55.9453236],[-3.1846043,55.9453236],[-3.1846564,55.9450282],[-3.1847085,55.9447327],[-3.1846564,55.9444373],[-3.184759,55.9441554],[-3.1846564,55.9438735],[-3.1849519,55.9439256],[-3.1852473,55.9439777],[-3.1855473,55.9439777],[-3.1858473,55.9439777],[-3.1861473,55.9439777],[-3.1864473,55.9439777],[-3.1867473,55.9439777],[-3.1870292,55.9440803],[-3.1873247,55.9441324],[-3.1876066,55.944235],[-3.187902,55.9442871],[-3.1881839,55.9443897]]},"properties":{}},{"type":"Feature","geometry":{"type":"Point","coordinates":[-3.188415,55.944305]},"properties":{"location":"trades.rare.cable","rgb-string":"#40ff00","marker-color":"#40ff00","marker-symbol":"lighthouse"}},{"type":"Feature","geometry":{"type":"Point","coordinates":[-3.189138,55.944197]},"properties":{"location":"spoon.invest.every","rgb-string":"#40ff00","marker-color":"#40ff00","marker-symbol":"lighthouse"}},{"type":"Feature","geometry":{"type":"Point","coordinates":[-3.189186,55.945087]},"properties":{"location":"number.exist.rate","rgb-string":"#80ff00","marker-color":"#80ff00","marker-symbol":"lighthouse"}},{"type":"Feature","geometry":{"type":"Point","coordinates":[-3.188704,55.945168]},"properties":{"location":"rooms.lamp.teach","rgb-string":"#ffc000","marker-color":"#ffc000","marker-symbol":"danger"}},{"type":"Feature","geometry":{"type":"Point","coordinates":[-3.188801,55.945437]},"properties":{"location":"shady.soft.phones","rgb-string":"#ff8000","marker-color":"#ff8000","marker-symbol":"danger"}},{"type":"Feature","geometry":{"type":"Point","coordinates":[-3.188319,55.945518]},"properties":{"location":"skills.less.herb","rgb-string":"#c0ff00","marker-color":"#c0ff00","marker-symbol":"lighthouse"}},{"type":"Feature","geometry":{"type":"Point","coordinates":[-3.187259,55.945653]},"properties":{"location":"diner.leaves.mutual","rgb-string":"#ff4000","marker-color":"#ff4000","marker-symbol":"danger"}},{"type":"Feature","geometry":{"type":"Point","coordinates":[-3.186922,55.945437]},"properties":{"location":"spent.spoon.bolt","rgb-string":"#ff4000","marker-color":"#ff4000","marker-symbol":"danger"}},{"type":"Feature","geometry":{"type":"Point","coordinates":[-3.186537,55.944925]},"properties":{"location":"laws.merit.bleak","rgb-string":"#ff8000","marker-color":"#ff8000","marker-symbol":"danger"}},{"type":"Feature","geometry":{"type":"Point","coordinates":[-3.186777,55.944575]},"properties":{"location":"artist.gets.react","rgb-string":"#ff8000","marker-color":"#ff8000","marker-symbol":"danger"}},{"type":"Feature","geometry":{"type":"Point","coordinates":[-3.187307,55.944494]},"properties":{"location":"only.fairly.rift","rgb-string":"#ff8000","marker-color":"#ff8000","marker-symbol":"danger"}},{"type":"Feature","geometry":{"type":"Point","coordinates":[-3.187018,55.943982]},"properties":{"location":"renew.ears.tend","rgb-string":"#80ff00","marker-color":"#80ff00","marker-symbol":"lighthouse"}},{"type":"Feature","geometry":{"type":"Point","coordinates":[-3.1875,55.943874]},"properties":{"location":"begins.spider.drips","rgb-string":"#c0ff00","marker-color":"#c0ff00","marker-symbol":"lighthouse"}},{"type":"Feature","geometry":{"type":"Point","coordinates":[-3.187211,55.943335]},"properties":{"location":"scale.chair.kinds","rgb-string":"#c0ff00","marker-color":"#c0ff00","marker-symbol":"lighthouse"}},{"type":"Feature","geometry":{"type":"Point","coordinates":[-3.18697,55.942688]},"properties":{"location":"strut.river.surely","rgb-string":"#ffc000","marker-color":"#ffc000","marker-symbol":"danger"}},{"type":"Feature","geometry":{"type":"Point","coordinates":[-3.186248,55.942796]},"properties":{"location":"under.retire.bump","rgb-string":"#ff0000","marker-color":"#ff0000","marker-symbol":"danger"}},{"type":"Feature","geometry":{"type":"Point","coordinates":[-3.186007,55.943901]},"properties":{"location":"teams.mild.played","rgb-string":"#ff8000","marker-color":"#ff8000","marker-symbol":"danger"}},{"type":"Feature","geometry":{"type":"Point","coordinates":[-3.186537,55.944063]},"properties":{"location":"lime.learns.front","rgb-string":"#ff4000","marker-color":"#ff4000","marker-symbol":"danger"}},{"type":"Feature","geometry":{"type":"Point","coordinates":[-3.187982,55.943497]},"properties":{"location":"scare.cubs.resort","rgb-string":"#40ff00","marker-color":"#40ff00","marker-symbol":"lighthouse"}},{"type":"Feature","geometry":{"type":"Point","coordinates":[-3.189908,55.942904]},"properties":{"location":"second.launch.miles","rgb-string":"#00ff00","marker-color":"#00ff00","marker-symbol":"lighthouse"}},{"type":"Feature","geometry":{"type":"Point","coordinates":[-3.190197,55.943443]},"properties":{"location":"arts.dish.scarcely","rgb-string":"#40ff00","marker-color":"#40ff00","marker-symbol":"lighthouse"}},{"type":"Feature","geometry":{"type":"Point","coordinates":[-3.190294,55.943712]},"properties":{"location":"sculpture.shot.melon","rgb-string":"#40ff00","marker-color":"#40ff00","marker-symbol":"lighthouse"}},{"type":"Feature","geometry":{"type":"Point","coordinates":[-3.190727,55.943092]},"properties":{"location":"relate.chill.vest","rgb-string":"#40ff00","marker-color":"#40ff00","marker-symbol":"lighthouse"}},{"type":"Feature","geometry":{"type":"Point","coordinates":[-3.190583,55.942823]},"properties":{"location":"tonic.bliss.cove","rgb-string":"#000000","marker-color":"#000000","marker-symbol":"cross"}},{"type":"Feature","geometry":{"type":"Point","coordinates":[-3.191161,55.942742]},"properties":{"location":"along.spill.limp","rgb-string":"#00ff00","marker-color":"#00ff00","marker-symbol":"lighthouse"}},{"type":"Feature","geometry":{"type":"Point","coordinates":[-3.191594,55.945195]},"properties":{"location":"hills.feels.tunes","rgb-string":"#ff8000","marker-color":"#ff8000","marker-symbol":"danger"}},{"type":"Feature","geometry":{"type":"Point","coordinates":[-3.192221,55.945114]},"properties":{"location":"useful.hike.trades","rgb-string":"#ff8000","marker-color":"#ff8000","marker-symbol":"danger"}},{"type":"Feature","geometry":{"type":"Point","coordinates":[-3.191161,55.945976]},"properties":{"location":"simple.rust.audio","rgb-string":"#ff4000","marker-color":"#ff4000","marker-symbol":"danger"}},{"type":"Feature","geometry":{"type":"Point","coordinates":[-3.189957,55.94603]},"properties":{"location":"love.behind.orchestra","rgb-string":"#ff0000","marker-color":"#ff0000","marker-symbol":"danger"}},{"type":"Feature","geometry":{"type":"Point","coordinates":[-3.189379,55.945949]},"properties":{"location":"coherent.saints.stuck","rgb-string":"#ff8000","marker-color":"#ff8000","marker-symbol":"danger"}},{"type":"Feature","geometry":{"type":"Point","coordinates":[-3.18933,55.945653]},"properties":{"location":"museum.spicy.horns","rgb-string":"#ff4000","marker-color":"#ff4000","marker-symbol":"danger"}},{"type":"Feature","geometry":{"type":"Point","coordinates":[-3.184513,55.945302]},"properties":{"location":"settle.title.united","rgb-string":"#ff0000","marker-color":"#ff0000","marker-symbol":"danger"}},{"type":"Feature","geometry":{"type":"Point","coordinates":[-3.184658,55.943874]},"properties":{"location":"rider.mile.lime","rgb-string":"#ff0000","marker-color":"#ff0000","marker-symbol":"danger"}}]}